[
    {
        "Name": "No",
        "Date": "No",
        "Location": "No",
        "County": "No",
        "Ownership": "No",
        "Description": "No"
    },
    {
        "Name": "No",
        "Date": "No",
        "Location": "No",
        "County": "No",
        "Ownership": "No",
        "Description": "No"
    },
    {
        "Name": "No",
        "Date": "No",
        "Location": "No",
        "County": "No",
        "Ownership": "No",
        "Description": "No"
    },
    {
        "Name": "No",
        "Date": "No",
        "Location": "No",
        "County": "No",
        "Ownership": "No",
        "Description": "No"
    },
    {
        "Name": "No",
        "Date": "No",
        "Location": "No",
        "County": "No",
        "Ownership": "No",
        "Description": "No"
    },
    {
        "Name": "No",
        "Date": "No",
        "Location": "No",
        "County": "No",
        "Ownership": "No",
        "Description": "No"
    },
    {
        "Name": "No",
        "Date": "No",
        "Location": "No",
        "County": "No",
        "Ownership": "No",
        "Description": "No"
    },
    {
        "Name": "No",
        "Date": "No",
        "Location": "No",
        "County": "No",
        "Ownership": "No",
        "Description": "No"
    },
    {
        "Name": "No",
        "Date": "No",
        "Location": "No",
        "County": "No",
        "Ownership": "No",
        "Description": "No"
    },
    {
        "Name": "No",
        "Date": "No",
        "Location": "No",
        "County": "No",
        "Ownership": "No",
        "Description": "No"
    },
    {
        "Name": "No",
        "Date": "No",
        "Location": "No",
        "County": "No",
        "Ownership": "No",
        "Description": "No"
    },
    {
        "Name": "No",
        "Date": "No",
        "Location": "Yes",
        "County": "No",
        "Ownership": "No",
        "Description": "No"
    }
]